"city","state","btus_pmile_ave","density","lookup","lon","lat"
"Abilene","TX",13574.1,2547.39130434783,"Abilene, TX",-99.7331439,32.4487364
"Abingdon","MD",8664.9,1643.53383458647,"Abingdon, MD",-76.2791236,39.4623305
"Akron","OH",19759.2,1292.61666666667,"Akron, OH",-81.5190053,41.0814447
"Alameda","CA",33022.5,3295.45454545455,"Alameda, CA",-122.2416355,37.7652065
"Albany","GA",17489.1,4448,"Albany, GA",-84.155741,31.5785074
"Albany","NY",15495,451.302840909091,"Albany, NY",-73.7562317,42.6525793
"Albuquerque","NM",7916.16666666667,1657.23425414365,"Albuquerque, NM",-106.609991,35.110703
"Alexandria","LA",14700.35,2148.96428571429,"Alexandria, LA",-92.4451371,31.3112936
"Alexandria","VA",4656.6,1286.62992125984,"Alexandria, VA",-77.0469214,38.8048355
"Allentown","PA",8894.7,3669.81132075472,"Allentown, PA",-75.4901833,40.6084305
"Altoona","PA",27432.9666666667,2784.32,"Altoona, PA",-78.3947359,40.5186809
"Amarillo","TX",16495.35,2361.60810810811,"Amarillo, TX",-101.8312969,35.2219971
"Ames","IA",7748.5,3351.73333333333,"Ames, IA",-93.625622,42.02335
"Anaheim","CA",2866.8,14000,"Anaheim, CA",-117.9145036,33.8352932
"Anchorage","AK",7398.525,3177.54151624549,"Anchorage, AK",-149.9002778,61.2180556
"Anderson","IN",15311.55,1327.42222222222,"Anderson, IN",-85.6802541,40.1053196
"Annapolis","MD",3150.7,900,"Annapolis, MD",-76.4921829,38.9784453
"Ann Arbor","MI",15243.1,2732.21774193548,"Ann Arbor, MI",-83.7430378,42.2808256
"Antioch","CA",9751.7,1200,"Antioch, CA",-121.805789,38.0049214
"Appleton","WI",9027.96666666667,180.46962115797,"Appleton, WI",-88.4153847,44.2619309
"Arcadia","CA",14012.7,5104.81818181818,"Arcadia, CA",-118.0353449,34.1397292
"Arlington","TX",9786.45,2220.26972010178,"Arlington, TX",-97.1080656,32.735687
"Arlington","VA",18679.85,8076.92307692308,"Arlington, VA",-77.1067698,38.8799697
"Arlington Heights","IL",7970.71666666667,1707.08253531559,"Arlington Heights, IL",-87.9806265,42.0883603
"Asheville","NC",8036.9,1617.53333333333,"Asheville, NC",-82.5514869,35.5950581
"Athens","GA",38628.95,2500,"Athens, GA",-83.3833333,33.95
"Atlanta","GA",6560.81428571429,2994.45621657754,"Atlanta, GA",-84.3879824,33.7489954
"Atlantic City","NJ",8107.2,446.20811287478,"Atlantic City, NJ",-74.4229266,39.3642834
"Auburn","CA",9544.775,377.164449818622,"Auburn, CA",-121.0768901,38.8965654
"Auburn","ME",14265.475,54.8680262541022,"Auburn, ME",-70.2311655,44.0978509
"Augusta","GA",20201.65,8400,"Augusta, GA",-82.0105148,33.4734978
"Austin","TX",5724.68333333333,1792.3275862069,"Austin, TX",-97.7430608,30.267153
"Bakersfield","CA",2733.45,4688.37755102041,"Bakersfield, CA",-119.0187125,35.3732921
"Baltimore","MD",8162.32857142857,1157.47465181058,"Baltimore, MD",-76.6121893,39.2903848
"Bangor","ME",3585.85,1913.79310344828,"Bangor, ME",-68.7778138,44.8011821
"Bartow","FL",10528.3333333333,3206.75,"Bartow, FL",-81.8431374,27.8964147
"Batavia","OH",12016.1666666667,393.805309734513,"Batavia, OH",-84.1768795,39.0770072
"Baton Rouge","LA",14193.35,1423.23076923077,"Baton Rouge, LA",-91.1403196,30.4582829
"Battle Creek","MI",15819.5,798.076923076923,"Battle Creek, MI",-85.1797142,42.3211522
"Bay City","MI",13754.1,246.085011185682,"Bay City, MI",-83.8888647,43.5944677
"Beaumont","TX",15918.25,2017.82926829268,"Beaumont, TX",-94.1265562,30.080174
"Bellingham","WA",6957,251.639175257732,"Bellingham, WA",-122.4882249,48.7595529
"Beloit","WI",9546.4,2241.9375,"Beloit, WI",-89.0317765,42.5083482
"Bend","OR",18719.1,2531.09375,"Bend, OR",-121.3153096,44.0581728
"Benton Harbor","MI",15488.55,1764.28571428571,"Benton Harbor, MI",-86.4541894,42.1167065
"Berlin","CT",4255.6,2513.11111111111,"Berlin, CT",-72.7456519,41.621488
"Bethlehem","PA",1072.3,1878.19185645273,"Bethlehem, PA",-75.3704579,40.6259316
"Bettendorf","IA",17743.4,1449.54545454545,"Bettendorf, IA",-90.48344,41.56085
"Billings","MT",10077.65,2941.17647058824,"Billings, MT",-108.5006904,45.7832856
"Birmingham","AL",10392.7,2052.09031413613,"Birmingham, AL",-86.80249,33.5206608
"Bismarck","ND",19646.75,691.379562043796,"Bismarck, ND",-100.7837392,46.8083268
"Blacksburg","VA",24412.15,2009.28571428571,"Blacksburg, VA",-80.4139393,37.2295733
"Bloomfield","CT",1558.8,755.34732124669,"Bloomfield, CT",-72.7300945,41.826488
"Bloomington","IN",13445.5,3299.57142857143,"Bloomington, IN",-86.5263857,39.165325
"Bonifay","FL",16943.1,1675.94936708861,"Bonifay, FL",-85.6796533,30.7918559
"Boston","MA",6779.6125,1390.38224414303,"Boston, MA",-71.0597732,42.3584308
"Bourbonnais","IL",9968.85,3032.66666666667,"Bourbonnais, IL",-87.8780556,41.1830556
"Bowling Green","KY",21984.85,3333.33333333333,"Bowling Green, KY",-86.4436018,36.9903199
"Bradenton","FL",9088.5,1144.44444444444,"Bradenton, FL",-82.5748194,27.4989278
"Bremerton","WA",6567.5,598.484848484848,"Bremerton, WA",-122.6329356,47.5673202
"Bridgeport","CT",12045.5,3141.22222222222,"Bridgeport, CT",-73.1951767,41.1865478
"Bridgeton","NJ",16983.2,313.796,"Bridgeton, NJ",-75.2340768,39.427337
"Brockton","MA",5670.7,3119.3661971831,"Brockton, MA",-71.0183787,42.0834335
"Brooklyn","NY",2359.2,2554.20779220779,"Brooklyn, NY",-73.95,40.65
"Brooksville","FL",4597.85,346.951882845188,"Brooksville, FL",-82.3878709,28.5552719
"Brownsville","TX",14191,3582.61538461538,"Brownsville, TX",-97.4974838,25.9017472
"Brunswick","OH",12098.6,1260.48648648649,"Brunswick, OH",-81.8418006,41.2381096
"Bryan","TX",11736.2,1790.54054054054,"Bryan, TX",-96.3699632,30.6743643
"Buffalo","NY",11814.6333333333,750.580952380952,"Buffalo, NY",-78.8783689,42.8864468
"Burlington","VT",16201.75,1417.50819672131,"Burlington, VT",-73.212072,44.4758825
"Burlington","WA",6353.66666666667,149.651315789474,"Burlington, WA",-122.3254375,48.4756621
"Canton","OH",11463.35,666.839506172839,"Canton, OH",-81.378447,40.7989473
"Cape May Court House","NJ",4572,399.7109375,"Cape May Court House, NJ",-74.8237786,39.0826135
"Carmel","NY",10837,585.758333333333,"Carmel, NY",-73.6801297,41.4300937
"Cary","NC",9270.4,2159.46,"Cary, NC",-78.7811169,35.79154
"Casper","WY",13133.55,618.935483870968,"Casper, WY",-106.313081,42.866632
"Cedar Rapids","IA",7126,4441.63636363636,"Cedar Rapids, IA",-91.6656232,41.9778795
"Chapel Hill","NC",15036,1238.04838709677,"Chapel Hill, NC",-79.0558445,35.9131996
"Charleroi","PA",21382.65,715.291139240506,"Charleroi, PA",-79.8981035,40.1378499
"Charleston","SC",9520.95,6929.84931506849,"Charleston, SC",-79.9309216,32.7765656
"Charleston","WV",9128.5,216.404208194906,"Charleston, WV",-81.6326234,38.3498195
"Charlotte","NC",6853.725,1705.45393258427,"Charlotte, NC",-80.8431267,35.2270869
"Charlottesville","VA",8139.2,110.904649330181,"Charlottesville, VA",-78.4766781,38.0293059
"Chattanooga","TN",12658.7666666667,538.249134948097,"Chattanooga, TN",-85.3096801,35.0456297
"Chesterton","IN",2448.4,486.621319796954,"Chesterton, IN",-87.0641992,41.6105937
"Cheyenne","WY",9630.7,2944.44444444444,"Cheyenne, WY",-104.8202462,41.1399814
"Chicago","IL",3229.93333333333,3279.84192439863,"Chicago, IL",-87.6297982,41.8781136
"Chico","CA",10096.7,937.5,"Chico, CA",-121.8374777,39.7284944
"Chula Vista","CA",1041,5749.46341463415,"Chula Vista, CA",-117.0841955,32.6400541
"Cincinnati","OH",8938.55,3226.34732824427,"Cincinnati, OH",-84.5120196,39.1031182
"Clarksville","TN",15492.95,1091.02542372881,"Clarksville, TN",-87.3594528,36.5297706
"Cleveland","OH",12070.36,3083.27510917031,"Cleveland, OH",-81.6954088,41.4994954
"Cocoa","FL",5536.95,1283.22685185185,"Cocoa, FL",-80.7419984,28.3861159
"Colorado Springs","CO",4633.06666666667,2190,"Colorado Springs, CO",-104.8213634,38.8338816
"Columbia","MO",20967.2,1900,"Columbia, MO",-92.3340724,38.9517053
"Columbia","SC",9052.85,1937.98449612403,"Columbia, SC",-81.0348144,34.0007104
"Columbus","GA",18976.15,1744,"Columbus, GA",-84.9877094,32.4609764
"Columbus","OH",12381,3255.12307692308,"Columbus, OH",-82.9987942,39.9611755
"Commerce","CA",3447.2,1303.3,"Commerce, CA",-118.1597929,34.0005691
"Concord","CA",11355.85,3496.5034965035,"Concord, CA",-122.0310733,37.9779776
"Conover","NC",7665.85,205.490690690691,"Conover, NC",-81.2186933,35.7065217
"Conway","SC",8132.1,129.515649050795,"Conway, SC",-79.0478143,33.8360034
"Coralville","IA",4100,1619.18181818182,"Coralville, IA",-91.5960643,41.6822756
"Corona","CA",9619.2,3902.43902439024,"Corona, CA",-117.5664384,33.8752935
"Corpus Christi","TX",7044.02,378.299522673031,"Corpus Christi, TX",-97.396381,27.8005828
"Corvallis","OR",3319.2,3937.5,"Corvallis, OR",-123.2620435,44.5645659
"Crown Point","IN",25485,327.272727272727,"Crown Point, IN",-87.3653135,41.4169806
"Culver City","CA",8784.75,11479.9230769231,"Culver City, CA",-118.3964665,34.0211224
"Cumberland","MD",17793.3,525.038167938931,"Cumberland, MD",-78.7625185,39.6528654
"Dallas","TX",6146.66,3478.44702467344,"Dallas, TX",-96.8004511,32.7801399
"Danbury","CT",12935.75,1248.83064516129,"Danbury, CT",-73.4540111,41.394817
"Danville","IL",12690.7,1229.8,"Danville, IL",-87.6300207,40.124481
"Danville","VA",9626.2,1936.44,"Danville, VA",-79.3950228,36.5859718
"Davenport","IA",13261.6,3803.84615384615,"Davenport, IA",-90.5776367,41.5236437
"Davis","CA",830.6,3510.42105263158,"Davis, CA",-121.7405167,38.5449065
"Dayton","OH",10308.1666666667,2040.37226277372,"Dayton, OH",-84.1916069,39.7589478
"Decatur","AL",16700.4,193.491289198606,"Decatur, AL",-86.9833417,34.6059253
"Decatur","IL",17933.55,1624.15094339623,"Decatur, IL",-88.9548001,39.8403147
"DeKalb","IL",10625.5,3100.27777777778,"DeKalb, IL",-88.7503647,41.9294736
"Denver","CO",5355.33333333333,1287.6321373613,"Denver, CO",-104.9847179,39.737567
"Derby","CT",10620.6,1.53448275862069,"Derby, CT",-73.0889973,41.3206523
"Des Moines","IA",6886.1,2934.90780141844,"Des Moines, IA",-93.6091064,41.6005448
"Detroit","MI",9653.98571428571,3196.711794201,"Detroit, MI",-83.0457538,42.331427
"Dothan","AL",13995.75,150,"Dothan, AL",-85.3904888,31.2232313
"Douglasville","GA",1748.2,621.890547263682,"Douglasville, GA",-84.7477136,33.7514966
"Dover","DE",11642.2,452.979529170931,"Dover, DE",-75.5243682,39.158168
"Dover","NH",15520.1333333333,662.475524475524,"Dover, NH",-70.8736698,43.1978624
"Dover","NJ",1919.5,1878.19185645273,"Dover, NJ",-74.5621025,40.883988
"Dubuque","IA",12553.25,2230.76923076923,"Dubuque, IA",-90.6645718,42.5005583
"Duluth","MN",11576.5,859.93006993007,"Duluth, MN",-92.1004852,46.7866719
"Dunlap","TN",26073.2,1609.45833333333,"Dunlap, TN",-85.3905209,35.3714575
"Durham","NC",10912.95,2010.75268817204,"Durham, NC",-78.898619,35.9940329
"Durham","NH",3630.7,774.886597938144,"Durham, NH",-70.9264393,43.1339545
"East Chicago","IN",26959.75,3081.09090909091,"East Chicago, IN",-87.4547635,41.6392024
"Eau Claire","WI",5329.7,2607.14285714286,"Eau Claire, WI",-91.4984941,44.811349
"El Centro","CA",6342.4,36.2927359721618,"El Centro, CA",-115.5630514,32.792
"Elizabeth","NJ",2135.93333333333,1878.19185645273,"Elizabeth, NJ",-74.2107006,40.6639916
"Elk Grove","CA",18045.65,3166.66666666667,"Elk Grove, CA",-121.3716178,38.4087993
"Ellicott City","MD",9924.2,1135.26693227092,"Ellicott City, MD",-76.7983067,39.2673283
"Elmira","NY",14683,233.321078431373,"Elmira, NY",-76.8077338,42.0897965
"El Monte","CA",7417,7179.58420727946,"El Monte, CA",-118.0275667,34.0686206
"El Paso","TX",5086.55,2972.75609756098,"El Paso, TX",-106.4968055,31.7699559
"Elyria","OH",106245.35,575.078787878788,"Elyria, OH",-82.1076486,41.3683798
"Erie","PA",11341.15,2465.87012987013,"Erie, PA",-80.085059,42.1292241
"Eugene","OR",4432.375,1216.18257261411,"Eugene, OR",-123.0867536,44.0520691
"Evansville","IN",19302.25,2732.46666666667,"Evansville, IN",-87.5710898,37.9715592
"Everett","WA",7893.1,2634.05594405594,"Everett, WA",-122.2020794,47.9789848
"Fairbanks","AK",10313.4,13.1623420730879,"Fairbanks, AK",-147.7163889,64.8377778
"Fairfax","VA",3620.65,2662.8024691358,"Fairfax, VA",-77.3063733,38.8462236
"Fairfield","CA",11295.3,2905.41463414634,"Fairfield, CA",-122.0399663,38.2493581
"Fargo","ND",9485.5,2777.77777777778,"Fargo, ND",-96.7898034,46.8771863
"Fayetteville","AR",29380.8,3224.83333333333,"Fayetteville, AR",-94.1574263,36.0625795
"Fayetteville","NC",11441.45,2254.83695652174,"Fayetteville, NC",-78.8783585,35.0526641
"Fitchburg","MA",6803.1,351.013536379019,"Fitchburg, MA",-71.8022955,42.5834228
"Flagstaff","AZ",11893.75,13281.8461538462,"Flagstaff, AZ",-111.639249,35.2013516
"Flint","MI",9305.86666666667,1690.46899224806,"Flint, MI",-83.6874562,43.0125274
"Florence","SC",7762.45,93.1607092597805,"Florence, SC",-79.7625625,34.1954331
"Fond du Lac","WI",17933.9333333333,2539.47368421053,"Fond du Lac, WI",-88.4470508,43.7730448
"Fort Collins","CO",9226.325,2542.0412371134,"Fort Collins, CO",-105.084423,40.5852602
"Fort Myers","FL",7469.4,3666.90909090909,"Fort Myers, FL",-81.8723084,26.640628
"Fort Pierce","FL",10828.35,465.912587412587,"Fort Pierce, FL",-80.3256056,27.4467056
"Fort Smith","AR",12206.3,1114.83333333333,"Fort Smith, AR",-94.3985475,35.3859242
"Fort Walton Beach","FL",11600.5,852.49,"Fort Walton Beach, FL",-86.6170308,30.4200708
"Fort Wayne","IN",9231.1,4076.01639344262,"Fort Wayne, IN",-85.1393513,41.079273
"Fort Worth","TX",3431.85,2084.57142857143,"Fort Worth, TX",-97.3307658,32.7554883
"Fort Wright","KY",11587.35,1010.03745318352,"Fort Wright, KY",-84.5350292,39.0511558
"Framingham","MA",5934.2,1080.36448598131,"Framingham, MA",-71.4161565,42.279286
"Franklin","TN",1195.5,250,"Franklin, TN",-86.8688899,35.9250637
"Frederick","MD",13906.2,3341.88888888889,"Frederick, MD",-77.4105409,39.4142688
"Fredericksburg","VA",3141.5,262.287897310513,"Fredericksburg, VA",-77.4605399,38.3031837
"Fresno","CA",13277.1,3776.71428571429,"Fresno, CA",-119.7725868,36.7468422
"Gainesville","FL",29252.4,1990.71052631579,"Gainesville, FL",-82.3248262,29.6516344
"Gainesville","GA",15307.1,836.368421052632,"Gainesville, GA",-83.8240663,34.2978794
"Galveston","TX",25033.7,1468.75,"Galveston, TX",-94.7976958,29.3013479
"Gardena","CA",11757.9,7186.65,"Gardena, CA",-118.3089624,33.8883487
"Garden City","NY",11566.75,4738.67595818815,"Garden City, NY",-73.6342954,40.7267682
"Gary","IN",63710.05,2703.84210526316,"Gary, IN",-87.3464271,41.5933696
"Glendale","AZ",8660.73333333333,3726.9544924154,"Glendale, AZ",-112.1859866,33.5386523
"Gloucester","MA",11346.25,575,"Gloucester, MA",-70.6619888,42.6159285
"Grand Forks","ND",10747.75,6281.55555555556,"Grand Forks, ND",-97.0328547,47.9252568
"Grand Haven","MI",16122.2,1520.18181818182,"Grand Haven, MI",-86.2283864,43.0630734
"Grand Junction","CO",18209,1818.18181818182,"Grand Junction, CO",-108.5506486,39.0638705
"Grand Prairie","TX",10991.5,2075,"Grand Prairie, TX",-96.9977846,32.7459645
"Grand Rapids","MI",6052.86666666667,2609.40540540541,"Grand Rapids, MI",-85.6680863,42.9633599
"Grand River","OH",9381.46666666667,771.223728813559,"Grand River, OH",-81.2812144,41.7361547
"Granite City","IL",8398.9,1229.08994708995,"Granite City, IL",-90.1487199,38.7014389
"Great Falls","MT",18049.4,3150,"Great Falls, MT",-111.2833449,47.4941836
"Greeley","CO",15240.7,5470.58823529412,"Greeley, CO",-104.7091322,40.4233142
"Green Bay","WI",11986.8,1941.77777777778,"Green Bay, WI",-88.019826,44.519159
"Greensboro","NC",10982.52,673.998676248109,"Greensboro, NC",-79.7919754,36.0726354
"Greensburg","PA",4801.75,443.212574850299,"Greensburg, PA",-79.5389289,40.3014581
"Greenville","SC",13860.7,1676.84459459459,"Greenville, SC",-82.3940104,34.8526176
"Gretna","LA",4659.45,4667.71276595745,"Gretna, LA",-90.0539603,29.9146493
"Gulfport","MS",3879.1,1775.06153846154,"Gulfport, MS",-89.0928155,30.3674198
"Hagerstown","MD",15593.4,637.257142857143,"Hagerstown, MD",-77.7199932,39.6417629
"Hamden","CT",18538.2,2401.52127659574,"Hamden, CT",-72.9026064,41.3838782
"Hamilton","OH",11579.2,6279.37735849057,"Hamilton, OH",-84.5613355,39.3995008
"Hammond","IN",18972.8,3011.92727272727,"Hammond, IN",-87.5000412,41.5833688
"Hampton","VA",11477.5,3280.72628726287,"Hampton, VA",-76.3452218,37.0298687
"Hanford","CA",3579.03333333333,3997.30769230769,"Hanford, CA",-119.6456844,36.3274502
"Harrisburg","PA",10091.56,1802.45606060606,"Harrisburg, PA",-76.8844179,40.2737002
"Harrisonburg","VA",13623.15,2807.70588235294,"Harrisonburg, VA",-78.8689155,38.4495688
"Hartford","CT",7676.62,1633.25181701582,"Hartford, CT",-72.6850932,41.7637111
"Haverhill","MA",10875.8,1361.50666666667,"Haverhill, MA",-71.0772796,42.7762015
"Hermitage","PA",9155.05,179.541791044776,"Hermitage, PA",-80.44868,41.2333896
"Hesperia","CA",6398.8,790.066037735849,"Hesperia, CA",-117.3008784,34.4263886
"High Point","NC",11876.9333333333,1931.57692307692,"High Point, NC",-80.0053176,35.9556923
"Hoboken","NJ",1091.1,1878.19185645273,"Hoboken, NJ",-74.0323626,40.7439905
"Holland","MI",8751.525,1661.04761904762,"Holland, MI",-86.1089301,42.7875235
"Honolulu","HI",4809.2,3538.71428571429,"Honolulu, HI",-157.8583333,21.3069444
"Houston","TX",4787.95,2232.01735849057,"Houston, TX",-95.3693896,29.7601927
"Howell","MI",6099.3,318.603873239437,"Howell, MI",-83.9293952,42.6072552
"Huntington","WV",18789.9,1694.50746268657,"Huntington, WV",-82.445154,38.4192496
"Huntington Station","NY",13880.75,2183.48387096774,"Huntington Station, NY",-73.4115091,40.8534318
"Huntsville","AL",10289.1,1924.24242424242,"Huntsville, AL",-86.5861037,34.7303688
"Hurley","NY",1284.6,764.759694477086,"Hurley, NY",-74.0612519,41.9245368
"Hyannis","MA",3057.8,559.617721518987,"Hyannis, MA",-70.2881124,41.6524911
"Idaho Falls","ID",11123.65,1013.31428571429,"Idaho Falls, ID",-112.0339645,43.4916514
"Indianapolis","IN",8730.7,2123.12600536193,"Indianapolis, IN",-86.158068,39.768403
"Iowa City","IA",18042.6,479.917024320458,"Iowa City, IA",-91.5301683,41.6611277
"Ironton","OH",4940.8,1694.50746268657,"Ironton, OH",-82.6829406,38.5367471
"Ithaca","NY",10959.65,206.851323828921,"Ithaca, NY",-76.5018807,42.4439614
"Jackson","MI",18844.15,1837.20930232558,"Jackson, MI",-84.4013462,42.245869
"Jackson","MS",27372.1,1719.29824561404,"Jackson, MS",-90.1848103,32.2987573
"Jackson","TN",9750.8,1211.21568627451,"Jackson, TN",-88.8139469,35.6145169
"Jacksonville","FL",19925.125,3080.50541516245,"Jacksonville, FL",-81.655651,30.3321838
"Jamaica","NY",2902.6,3950.11796427368,"Jamaica, NY",-73.7889689,40.702677
"Janesville","WI",11500.6,2271.42857142857,"Janesville, WI",-89.0187222,42.6827885
"Jefferson City","MO",11478,1117.05555555556,"Jefferson City, MO",-92.1735164,38.5767017
"Jersey City","NJ",13074.3,14387.7551020408,"Jersey City, NJ",-74.0776417,40.7281575
"Johnson City","TN",19137.95,1496.39393939394,"Johnson City, TN",-82.3534727,36.3134397
"Johnstown","PA",38910.6333333333,1341.8,"Johnstown, PA",-78.9219698,40.3267407
"Jonesboro","GA",8626.7,3880.88235294118,"Jonesboro, GA",-84.3538128,33.5215013
"Kalamazoo","MI",7037.2,2679.14492753623,"Kalamazoo, MI",-85.5872286,42.2917069
"Kansas City","MO",9698.875,1572.99673558215,"Kansas City, MO",-94.5785667,39.0997265
"Kenosha","WI",19493.9333333333,3050,"Kenosha, WI",-87.8211854,42.5847425
"Kent","OH",10036.2,315.065040650407,"Kent, OH",-81.3578859,41.1536674
"Kingston","NY",6467.26666666667,161.341030195382,"Kingston, NY",-73.9973608,41.9270367
"Kingston","PA",7373.95,3616.07142857143,"Kingston, PA",-75.8968635,41.2617481
"Knoxville","TN",14574.3,1570.89261744966,"Knoxville, TN",-83.9207392,35.9606384
"Kokomo","IN",19902.5,871.025,"Kokomo, IN",-86.1336033,40.486427
"LaCrosse","WI",10582.95,2166.66666666667,"LaCrosse, WI",-91.2395807,43.8013556
"Lafayette","IN",12867.85,3390.625,"Lafayette, IN",-86.8752869,40.4167022
"Lafayette","LA",7571.03333333333,2840.62,"Lafayette, LA",-92.0198427,30.2240897
"Laguna Beach","CA",6637,2774.33333333333,"Laguna Beach, CA",-117.7831104,33.5422475
"Lakeland","FL",8573.4,1428.57142857143,"Lakeland, FL",-81.9498042,28.0394654
"La Mirada","CA",24089.4,6469.25,"La Mirada, CA",-118.0120086,33.9172357
"Lancaster","CA",11823.75,290.875,"Lancaster, CA",-118.1541632,34.6867846
"Lancaster","PA",3667.1,442.142857142857,"Lancaster, PA",-76.3055144,40.0378755
"Lansing","MI",7086.825,110.117786946889,"Lansing, MI",-84.5555347,42.732535
"Laredo","TX",13430.25,2235.13924050633,"Laredo, TX",-99.5075421,27.506407
"Largo","MD",3795.35,1739.21971252567,"Largo, MD",-76.8317325,38.8779723
"Las Cruces","NM",14935.2,1647.09090909091,"Las Cruces, NM",-106.7636538,32.3199396
"Las Vegas","NV",7134.6,7093.37857142857,"Las Vegas, NV",-115.172816,36.114646
"Lawrence","KS",17288.7333333333,3281.25,"Lawrence, KS",-95.2352501,38.9716689
"Lawrenceville","GA",20383.15,1661.10541310541,"Lawrenceville, GA",-83.9879625,33.9562149
"Lawton","OK",9909.3,1670.88095238095,"Lawton, OK",-98.3959291,34.6035669
"Lebanon","PA",10505.2,332.395027624309,"Lebanon, PA",-76.4113497,40.3409251
"Leesburg","VA",1877.9,599.613152804642,"Leesburg, VA",-77.5636015,39.1156615
"Lemont Furnace","PA",14362.6,183.059113300493,"Lemont Furnace, PA",-79.668518,39.913906
"Lewisville","TX",12519,1493.96178343949,"Lewisville, TX",-96.994174,33.046233
"Lexington","KY",16540.45,3144.02985074627,"Lexington, KY",-84.5037164,38.0405837
"Lincoln","NE",12223.65,2835.20879120879,"Lincoln, NE",-96.681679,40.806862
"Lindenwold","NJ",5093.7,9982.875,"Lindenwold, NJ",-74.9851678,39.8201681
"Livermore","CA",10891.3,4174.3,"Livermore, CA",-121.7680088,37.6818745
"Lodi","CA",5447.95,3764.70588235294,"Lodi, CA",-121.2722194,38.1341477
"Lodi","NJ",6179,3664.43724696356,"Lodi, NJ",-74.0831971,40.8823215
"Logan","UT",12541.6,2424.24242424242,"Logan, UT",-111.8338359,41.7369803
"Lompoc","CA",16535.05,1391.65,"Lompoc, CA",-120.4579409,34.6391501
"Long Beach","CA",10825,8163.26530612245,"Long Beach, CA",-118.1956168,33.768321
"Long Beach","NY",12883.15,2692.30769230769,"Long Beach, NY",-73.657908,40.5884373
"Longview","WA",10661.45,2200.47619047619,"Longview, WA",-122.9381672,46.1381676
"Los Angeles","CA",7013.67,6388.83936994609,"Los Angeles, CA",-118.2436849,34.0522342
"Louisville","KY",11983.325,2666.98233215548,"Louisville, KY",-85.7584557,38.2526647
"Loveland","CO",14740.25,2000,"Loveland, CO",-105.0749801,40.3977612
"Lowell","MA",11760.8,1135.81914893617,"Lowell, MA",-71.3161718,42.6334247
"Lubbock","TX",12815.8,3118.1875,"Lubbock, TX",-101.8551665,33.5778631
"Lynchburg","VA",26516.15,1122.86111111111,"Lynchburg, VA",-79.1422464,37.4137536
"Macon","GA",17600.5,2217.92857142857,"Macon, GA",-83.6324022,32.8406946
"Madison","WI",11252.8,3405.29166666667,"Madison, WI",-89.4012302,43.0730517
"Mahwah","NJ",1396.4,1878.19185645273,"Mahwah, NJ",-74.1435843,41.0886216
"Manchester","NH",24798.65,3053.1914893617,"Manchester, NH",-71.4547891,42.9956397
"Mansfield","OH",12702.85,1743.87179487179,"Mansfield, OH",-82.5154471,40.75839
"Marietta","GA",7807.13333333333,1169.21563981043,"Marietta, GA",-84.5499327,33.952602
"Marysville","CA",11099.6,145.948592411261,"Marysville, CA",-121.5913547,39.1457253
"McAllen","TX",15330.7,1836.94267515924,"McAllen, TX",-98.2300124,26.2034071
"McKinney","TX",14831.6,6060.55,"McKinney, TX",-96.6397822,33.1972465
"Medford","OR",5712.75,949.367088607595,"Medford, OR",-122.8755949,42.3265152
"Memphis","TN",14168.5,3085.51041666667,"Memphis, TN",-90.0489801,35.1495343
"Merced","CA",7922.7,4000,"Merced, CA",-120.4829677,37.3021632
"Meridian","ID",13671.8,4130.68181818182,"Meridian, ID",-116.3915131,43.6121087
"Mesquite","TX",13999.7,3195.12195121951,"Mesquite, TX",-96.5991593,32.7667955
"Miami","FL",6945.175,8171.97712418301,"Miami, FL",-80.2264393,25.7889689
"Miami Lakes","FL",1201.2,4407.73835125448,"Miami Lakes, FL",-80.3086619,25.9087056
"Middletown","CT",24822.6,467.979274611399,"Middletown, CT",-72.6506488,41.5623209
"Middletown","OH",12618.1,2474.5,"Middletown, OH",-84.3982763,39.5150576
"Milford","CT",12095,2125,"Milford, CT",-73.064036,41.2306979
"Milwaukee","WI",4860.83333333333,3966.93670886076,"Milwaukee, WI",-87.9064736,43.0389025
"Minneapolis","MN",3107.56666666667,2945.78515007899,"Minneapolis, MN",-93.26667,44.983334
"Missoula","MT",12945.5333333333,1506.83561643836,"Missoula, MT",-114.019501,46.8605189
"Mobile","AL",10784.55,2145.52136752137,"Mobile, AL",-88.0430541,30.6943566
"Modesto","CA",7394.65,4951.21951219512,"Modesto, CA",-120.9968782,37.6390972
"Moline ","IL",14145.0666666667,2601.23913043478,"Moline , IL",-90.5151342,41.5067003
"Monroe","LA",14072.3,1774.1935483871,"Monroe, LA",-92.1193012,32.5093109
"Monroe","NY",12610.85,2096.28,"Monroe, NY",-74.1868135,41.3306493
"Montclair","NJ",1923.8,1.87819185645273,"Montclair, NJ",-74.2090053,40.8259007
"Montebello","CA",4474.8,7313.12820512821,"Montebello, CA",-118.1137535,34.0165053
"Monterey","CA",6942.53333333333,1257.14285714286,"Monterey, CA",-121.8946761,36.6002378
"Montgomery","AL",15865.7,1493.0962962963,"Montgomery, AL",-86.2999689,32.3668052
"Moorhead","MN",10807.9,1829.95652173913,"Moorhead, MN",-96.7678039,46.8737648
"Morgantown","WV",16165.85,364.567164179104,"Morgantown, WV",-79.9558968,39.629526
"Mount Vernon","NY",7677.5,2052.13111111111,"Mount Vernon, NY",-73.8370786,40.9125992
"Muncie","IN",12080.25,3746.11111111111,"Muncie, IN",-85.3863599,40.1933767
"Murfreesboro","TN",14951.35,1543.80681818182,"Murfreesboro, TN",-86.39027,35.8456213
"Muscle Shoals","AL",8029.2,67.6923076923077,"Muscle Shoals, AL",-87.6675292,34.7448112
"Muskegon Heights","MI",7822.4,322.960151802657,"Muskegon Heights, MI",-86.2389464,43.2011264
"Nanuet","NY",7382.4,1483.10055865922,"Nanuet, NY",-74.013473,41.0887073
"Napa","CA",13243.8,3066.66666666667,"Napa, CA",-122.286865,38.2975381
"Naples","FL",7093,220.113681427627,"Naples, FL",-81.7948103,26.1420358
"Nashua","NH",8210.35,2500,"Nashua, NH",-71.467566,42.7653662
"Nashville","TN",5623.2,393.907527703477,"Nashville, TN",-86.7833333,36.1666667
"Newark","NJ",6327.275,4931.62527968448,"Newark, NJ",-74.1723667,40.735657
"Newark","OH",15617.85,238.214285714286,"Newark, OH",-82.4012642,40.0581205
"New Bedford","MA",9835.35,3973,"New Bedford, MA",-70.934205,41.6362152
"New Brunswick","NJ",2912.1,1878.19185645273,"New Brunswick, NJ",-74.4518188,40.4862157
"Newburgh","NY",4774.9,1887.68939393939,"Newburgh, NY",-74.0104178,41.5034271
"Newington","CT",9716.65,2192.98245614035,"Newington, CT",-72.7228293,41.6972996
"New Orleans","LA",17045.225,6476.153125,"New Orleans, LA",-90.0715323,29.9510658
"New Windsor","NY",5913.1,1704.54545454545,"New Windsor, NY",-74.0237518,41.4767605
"New York","NY",13925.7818181818,19782.7363522013,"New York, NY",-74.0059731,40.7143528
"Niles","OH",13586.9,360.1856,"Niles, OH",-80.765358,41.1828353
"Normal","IL",14539.75,4039.86206896552,"Normal, IL",-88.9906312,40.5142026
" Norman","OK",21369.85,543.719101123595," Norman, OK",-97.4394777,35.2225668
"North Little Rock","AR",16992.0333333333,1710.26595744681,"North Little Rock, AR",-92.2670941,34.769536
"Norwalk","CA",26873.05,5917.7027027027,"Norwalk, CA",-118.081733,33.9022367
"Norwalk","CT",18921.45,2415.55555555556,"Norwalk, CT",-73.4078968,41.1175966
"Oakland","CA",7219.4,4462.87454323995,"Oakland, CA",-122.2711137,37.8043637
"Oceanside","CA",5264.7,2109.18114143921,"Oceanside, CA",-117.3794834,33.1958696
"Odessa","TX",17876.5,2594.59459459459,"Odessa, TX",-102.3676431,31.8456816
"Oklahoma City","OK",12423.7,2664.84016393443,"Oklahoma City, OK",-97.5164276,35.4675602
"Olathe","KS",11110.75,1944.11111111111,"Olathe, KS",-94.8191285,38.8813958
"Olympia","WA",6059.16666666667,1597.9381443299,"Olympia, WA",-122.9006951,47.0378741
"Omaha","NE",15217.5,3254,"Omaha, NE",-95.9979883,41.2523634
"Opelika","AL",22225.3,188.985221674877,"Opelika, AL",-85.3782795,32.6454116
"Orange","CA",5203.025,6601.4688172043,"Orange, CA",-117.8531119,33.7877944
"Orlando","FL",5740.66666666667,711.552797478329,"Orlando, FL",-81.3792365,28.5383355
"Oshkosh","WI",18472.0666666667,2632.4,"Oshkosh, WI",-88.5426136,44.0247062
"Owego","NY",6921.75,805.184615384615,"Owego, NY",-76.2621549,42.1034075
"Oxnard","CA",2352.65,3962.89010989011,"Oxnard, CA",-119.1770516,34.1975048
"Paramus","NJ",2717.8,1878.19185645273,"Paramus, NJ",-74.0754189,40.9445428
"Parkersburg","WV",12997.7,3016.42857142857,"Parkersburg, WV",-81.5615135,39.2667418
"Pensacola","FL",22705.3,1901.89673913043,"Pensacola, FL",-87.2169149,30.421309
"Peoria","AZ",16578.5,857.142857142857,"Peoria, AZ",-112.2373779,33.5805955
"Peoria","IL",5264.8,1979,"Peoria, IL",-89.5889864,40.6936488
"Petaluma","CA",14346.45,4550,"Petaluma, CA",-122.6366524,38.232417
"Petersburg","VA",11447.35,4471.42857142857,"Petersburg, VA",-77.4019267,37.2279279
"Philadelphia","PA",7532.65,3841.46144994246,"Philadelphia, PA",-75.163789,39.952335
"Phoenix","AZ",10670.6,3349.80117916803,"Phoenix, AZ",-112.0740373,33.4483771
"Pinole","CA",13401,3100,"Pinole, CA",-122.2988587,38.0043667
"Pittsburgh","PA",14028.6666666667,1873.48835705045,"Pittsburgh, PA",-79.9958864,40.4406248
"Pittsfield","MA",8807.75,332.03125,"Pittsfield, MA",-73.2453824,42.4500845
"Pocatello","ID",8204.9,2265.40740740741,"Pocatello, ID",-112.4455344,42.8713032
"Pomona","NY",8246.95,1705.52840909091,"Pomona, NY",-74.053709,41.18985
"Pompano Beach","FL",6861.38333333333,1510.07296570276,"Pompano Beach, FL",-80.1247667,26.2378597
"Portage","IN",7700.9,3321.92,"Portage, IN",-87.1761455,41.5758707
"Port Arthur","TX",14886.3,1480.89743589744,"Port Arthur, TX",-93.939947,29.8849504
"Porterville","CA",8509.45,2141.46428571429,"Porterville, CA",-119.0167679,36.06523
"Port Huron","MI",8312.86666666667,234.621428571429,"Port Huron, MI",-82.4249142,42.9708634
"Portland","ME",6171.825,419.18183742591,"Portland, ME",-70.2553259,43.661471
"Portland","OR",4966.82,911.495328130153,"Portland, OR",-122.6762071,45.5234515
"Port Richey","FL",10049.9,633.16644295302,"Port Richey, FL",-82.7195451,28.2716755
"Port Tobacco","MD",7618.4,263.240174672489,"Port Tobacco, MD",-77.018833,38.5113836
"Port Washington","WI",10610,367.612765957447,"Port Washington, WI",-87.875644,43.3872247
"Poughkeepsie","NY",8531.53333333333,342.607760635811,"Poughkeepsie, NY",-73.9209701,41.7003713
"Preston","CT",21900.6,964.003076923077,"Preston, CT",-71.97657,41.527321
"Providence","RI",13477.8333333333,730.027158774373,"Providence, RI",-71.4128343,41.8239891
"Pueblo","CO",10972.55,2692.30769230769,"Pueblo, CO",-104.6091409,38.2544472
"Punta Gorda","FL",15187.4,725.533333333333,"Punta Gorda, FL",-82.0453664,26.9297836
"Queensbury","NY",19673.25,1298.76086956522,"Queensbury, NY",-73.6569444,43.3594444
"Racine","WI",13220.45,4151.85185185185,"Racine, WI",-87.7828523,42.7261309
"Raleigh","NC",5713.85,2893.5,"Raleigh, NC",-78.6381787,35.7795897
"Rapid City","SD",8016.05,1227.27272727273,"Rapid City, SD",-103.2310149,44.0805434
"Reading","PA",11032.9666666667,432.451388888889,"Reading, PA",-75.9268747,40.3356483
"Redding","CA",32706.85,1174.78,"Redding, CA",-122.3916754,40.5865396
"Redondo Beach","CA",12249.15,4866.23076923077,"Redondo Beach, CA",-118.3884078,33.8491816
"Reno","NV",2660.6,2352.77205882353,"Reno, NV",-119.8138027,39.5296329
"Research Triangle Park","NC",4951.06666666667,657.623606557377,"Research Triangle Park, NC",-78.8636402,35.8991678
"Richland","WA",11803.15,1875,"Richland, WA",-119.2844621,46.2856907
"Richmond","VA",5035.3,1980.49339207048,"Richmond, VA",-77.4360481,37.5407246
"Riverside","CA",6688.25,655.679254417817,"Riverside, CA",-117.3961564,33.9533487
"Roanoke","VA",8635.15,2207.23255813953,"Roanoke, VA",-79.9414266,37.2709704
"Rochester","MN",7602.85,709.047619047619,"Rochester, MN",-92.46295,44.0234
"Rochester","NY",9944.2,2369.94539249147,"Rochester, NY",-77.6109219,43.16103
"Rochester","PA",6927.4,390.165909090909,"Rochester, PA",-80.2864509,40.7022882
"Rockford","IL",10254.2,1992.73913043478,"Rockford, IL",-89.0939952,42.2711311
"Rockville","MD",3166.9,1961.61616161616,"Rockville, MD",-77.1527578,39.0839973
"Rocky Hill","CT",1205.7,1911.59139784946,"Rocky Hill, CT",-72.6655757,41.6572525
"Rome","GA",11930.8,1541.66666666667,"Rome, GA",-85.1646726,34.257038
"Roseville","CA",15818.95,3216.13888888889,"Roseville, CA",-121.2880059,38.7521235
"Sacramento","CA",8036.6,3963.65342960289,"Sacramento, CA",-121.4943996,38.5815719
"Saginaw","MI",34351.4,2015.87301587302,"Saginaw, MI",-83.9508068,43.4194699
"Salem","OR",3110.73333333333,3176.92307692308,"Salem, OR",-123.0350963,44.9428975
"Salt Lake City","UT",6296.91666666667,1235.42280453258,"Salt Lake City, UT",-111.8910474,40.7607793
"San Angelo","TX",16450.85,1573.71428571429,"San Angelo, TX",-100.4370375,31.4637723
"San Antonio","TX",8035.575,1282.73948887057,"San Antonio, TX",-98.4936282,29.4241219
"San Bernardino","CA",6645.75,3179.82456140351,"San Bernardino, CA",-117.2897652,34.1083449
"San Carlos","CA",5533.18,8406.69062226117,"San Carlos, CA",-122.2605222,37.5071591
"San Diego","CA",6033.74,1495.32421052632,"San Diego, CA",-117.1572551,32.7153292
"Sandusky","OH",13650.6,1612.28571428571,"Sandusky, OH",-82.7079605,41.4489396
"San Francisco","CA",12010.3333333333,8460.78531073446,"San Francisco, CA",-122.4194155,37.7749295
"San Jose","CA",5102.7,5769.55828220859,"San Jose, CA",-121.8949555,37.3393857
"San Luis Obispo","CA",10492,69.5010523150932,"San Luis Obispo, CA",-120.6596156,35.2827524
"San Saba","TX",8560.2,46.9143128412058,"San Saba, TX",-98.718098,31.1957234
"Santa Barbara","CA",9977.75,3585.21428571429,"Santa Barbara, CA",-119.6981901,34.4208305
"Santa Clarita","CA",3504.6,3147.66666666667,"Santa Clarita, CA",-118.542586,34.3916641
"Santa Cruz","CA",6171.35,570.713004484305,"Santa Cruz, CA",-122.0307963,36.9741171
"Santa Fe","NM",8815.4,1856.09756097561,"Santa Fe, NM",-105.937799,35.6869752
"Santa Maria","CA",18379,3532.26470588235,"Santa Maria, CA",-120.4357191,34.9530337
"Santa Monica","CA",12524.8,8990.3137254902,"Santa Monica, CA",-118.4911912,34.0194543
"Santa Rosa","CA",11663.9166666667,1489.16326530612,"Santa Rosa, CA",-122.7144314,38.4404674
"Sarasota","FL",12463.7666666667,1848.94835680751,"Sarasota, FL",-82.5306527,27.3364347
"Savannah","GA",16089.3,529.7899543379,"Savannah, GA",-81.0998342,32.0835407
"Scottsdale","AZ",12407.8,1333.33333333333,"Scottsdale, AZ",-111.9260519,33.4941704
"Scranton","PA",12782.1333333333,2421.49285714286,"Scranton, PA",-75.6624122,41.408969
"Seattle","WA",5866.47857142857,1410.31496695839,"Seattle, WA",-122.3320708,47.6062095
"Sheboygan","WI",13075.6,2586.52173913043,"Sheboygan, WI",-87.71453,43.7508284
"Sherman","TX",5025,40.7479288125192,"Sherman, TX",-96.6088805,33.6356618
"Shreveport","LA",9894.9,4206.65573770492,"Shreveport, LA",-93.7501789,32.5251516
"Simi Valley","CA",8438.95,2687.85106382979,"Simi Valley, CA",-118.781482,34.2694474
"Sioux City","IA",5893.65,2015.64705882353,"Sioux City, IA",-96.4003069,42.4999942
"Sioux Falls","SD",7566.9,2117.64705882353,"Sioux Falls, SD",-96.700327,43.5499749
"Snow Hill ","MD",17506.45,140.184367034834,"Snow Hill , MD",-75.3926959,38.1770634
"South Bend","IN",14325.175,2376.76666666667,"South Bend, IN",-86.2519898,41.6763545
"South Daytona","FL",6755.96666666667,388.293289146645,"South Daytona, FL",-81.0044995,29.1658158
"Spartanburg","SC",6794.5,392.749706227967,"Spartanburg, SC",-81.9320482,34.9495672
"Spokane","WA",6862.575,1589.1935483871,"Spokane, WA",-117.4260466,47.6587802
"Springdale","AR",17836.2,2269.73684210526,"Springdale, AR",-94.1288141,36.1867442
"Springfield","IL",13555.85,2032.30769230769,"Springfield, IL",-89.6501481,39.7817213
"Springfield","MA",12988.9,1826.30132450331,"Springfield, MA",-72.589811,42.1014831
"Springfield","MO",11338.95,1922.31707317073,"Springfield, MO",-93.2922989,37.2089572
"Springfield","OH",10450.9,2500,"Springfield, OH",-83.8088171,39.9242266
"Spring Valley","NY",3373.3,1834.6797752809,"Spring Valley, NY",-74.0437521,41.1131514
"State College","PA",5113.16666666667,627.398496240602,"State College, PA",-77.8600012,40.7933949
"Staten Island","NY",5168.2,8334.40677966102,"Staten Island, NY",-74.1502007,40.5795317
"St. Augustine","FL",104521.25,248.833333333333,"St. Augustine, FL",-81.3132083,29.8942639
"St. Cloud","MN",9622.3,3407.86206896552,"St. Cloud, MN",-94.1632404,45.5579451
"St. Joseph","MO",11857.3,1510,"St. Joseph, MO",-94.836541,39.757944
"St. Louis","MO",7892.73333333333,2698.27586206897,"St. Louis, MO",-90.1994042,38.6270025
"Stockton","CA",10888.45,1287.72436040044,"Stockton, CA",-121.2907796,37.9577016
"St. Paul","MN",5878.875,1092.08130729374,"St. Paul, MN",-93.0899578,44.9537029
"St. Petersburg","FL",18914.3666666667,3661.68067226891,"St. Petersburg, FL",-82.64,27.7730556
"Stuart","FL",22644.6,248.569369369369,"Stuart, FL",-80.2528257,27.197548
"Sugar Land","TX",11579.1,529.885714285714,"Sugar Land, TX",-95.6349463,29.6196787
"Sumter","SC",7107.1,87.1756644518272,"Sumter, SC",-80.3414693,33.9204354
"Surprise","AZ",20236,1329.78723404255,"Surprise, AZ",-112.3957576,33.639099
"Syracruse","NY",17193.55,2111.76712328767,"Syracruse, NY",-76.1474244,43.0481221
"Syracuse","NY",8696.15,1505.79607250755,"Syracuse, NY",-76.1474244,43.0481221
"Tacoma","WA",8606.65,1832.14975845411,"Tacoma, WA",-122.4442906,47.2528768
"Tallahassee","FL",14547,1591.27450980392,"Tallahassee, FL",-84.2807329,30.4382559
"Tampa","FL",9035.825,3379.86008230453,"Tampa, FL",-82.4571776,27.950575
"Taunton","MA",8550.75,1363.54166666667,"Taunton, MA",-71.0897674,41.900101
"Tavares","FL",8446.7,1373.19718309859,"Tavares, FL",-81.725632,28.8041579
"Tempe","AZ",8062.3,4020.5,"Tempe, AZ",-111.9400054,33.4255104
"Terre Haute","IN",19827.6,3311.88888888889,"Terre Haute, IN",-87.4139092,39.4667034
"Texas City","TX",9995.7,245.042040358744,"Texas City, TX",-94.9027002,29.383845
"Thousand Oaks","CA",7825.9,2367.43636363636,"Thousand Oaks, CA",-118.8375937,34.1705609
"Thousand Palms","CA",1838.25,277.759821428571,"Thousand Palms, CA",-116.3902887,33.8200183
"Toledo","OH",10637.4,2736.80536912752,"Toledo, OH",-83.555212,41.6639383
"Topeka","KS",9938.33333333333,2109.94827586207,"Topeka, KS",-95.6890185,39.0558235
"Torrance","CA",6788.05,5891.71844660194,"Torrance, CA",-118.3406288,33.8358492
"Troy","OH",12119.9,241.99756097561,"Troy, OH",-84.2032767,40.0394982
"Tucson   ","AZ",7723.95,2365.21739130435,"Tucson   , AZ",-110.926479,32.2217429
"Tulsa","OK",18240.7333333333,2040.81632653061,"Tulsa, OK",-95.992775,36.1539816
"Turlock","CA",5307.35,4524.46666666667,"Turlock, CA",-120.8465941,37.4946568
"Tuscaloosa","AL",15605.8,778.652173913043,"Tuscaloosa, AL",-87.5691735,33.2098407
"Tuscon","AZ",1482.4,91.8213080857547,"Tuscon, AZ",-110.926479,32.2217429
"Union City","CA",12635.45,4105.55555555556,"Union City, CA",-122.0438298,37.5933918
"University Place","WA",22023.7,3433.47639484979,"University Place, WA",-122.5504041,47.2356536
"Urbana","IL",19240.5333333333,4116.13333333333,"Urbana, IL",-88.2072697,40.1105875
"Vallejo","CA",13767.7333333333,4375,"Vallejo, CA",-122.2566367,38.1040864
"Valparaiso","IN",11406.6,136.264389869532,"Valparaiso, IN",-87.0611412,41.4730948
"Vancouver","WA",6346.2,2633.34532374101,"Vancouver, WA",-122.6614861,45.6387281
"Ventura","CA",5894.9,5291.66666666667,"Ventura, CA",-119.2290053,34.2746405
"Vero Beach","FL",9863.2,669.925714285714,"Vero Beach, FL",-80.3972736,27.6386434
"Vestal","NY",11540.1333333333,231.741573033708,"Vestal, NY",-76.053813,42.0850747
"Victoria","TX",15951.55,2020.1,"Victoria, TX",-97.0035982,28.8052674
"Visalia","CA",4920.6,3500,"Visalia, CA",-119.2920585,36.3302284
"Waco","TX",18429.3,2021.39655172414,"Waco, TX",-97.1466695,31.549333
"Washington","DC",10387.125,4793.59682080925,"Washington, DC",-77.0364641,38.9072309
"Washington","PA",19823.5,1867.69696969697,"Washington, PA",-80.2461714,40.17396
"Waterbury","CT",10695.35,3259.06896551724,"Waterbury, CT",-73.0514965,41.5581525
"Waterloo","IA",17877.1333333333,1229.41573033708,"Waterloo, IA",-92.3429631,42.4927641
"Waukesha","WI",17601.025,1687.5,"Waukesha, WI",-88.2314813,43.0116784
"Wausau","WI",6612.5,1685.66666666667,"Wausau, WI",-89.6301221,44.9591352
"Weehawken","NJ",9635,4714.50386597938,"Weehawken, NJ",-74.0253715,40.7663711
"Wenatchee","WA",9849.46666666667,65.625,"Wenatchee, WA",-120.3103494,47.4234599
"West Bend","WI",7809.95,293.95632183908,"West Bend, WI",-88.1834277,43.4252776
"West Covina","CA",1745.6,4635.58409785933,"West Covina, CA",-117.9389526,34.0686208
"West Deptford","NJ",4287.9,881.215805471125,"West Deptford, NJ",-75.1738889,39.8425
"Westminster","MD",22103,361.891228070175,"Westminster, MD",-76.9958149,39.5753791
"West Palm Beach","FL",9885.83333333333,2692.87671232877,"West Palm Beach, FL",-80.0533746,26.7153424
"Westwood","NJ",2401.6,1878.19185645273,"Westwood, NJ",-74.0326395,40.9912087
"Wheeling","WV",18643.7,2286.11111111111,"Wheeling, WV",-80.7209149,40.0639616
"Wichita","KS",13323.0666666667,2590.91275167785,"Wichita, KS",-97.3361111,37.6888889
"Williamsburg","VA",13893.5,395.833333333333,"Williamsburg, VA",-76.7074571,37.2707022
"Williamsport","PA",9607.35,783.865168539326,"Williamsport, PA",-77.0010786,41.2411897
"Wilmington","NC",13543.55,1735.3125,"Wilmington, NC",-77.9447102,34.2257255
"Wilsonville","OR",20993.05,239.625,"Wilsonville, OR",-122.7737062,45.2998418
"Winston-Salem","NC",16527.65,1847.73148148148,"Winston-Salem, NC",-80.244216,36.0998596
"Woodbridge","VA",2713.5,1139.2188365651,"Woodbridge, VA",-77.2497049,38.6581722
"Woodland","CA",9683.15,4852.11009174312,"Woodland, CA",-121.7732971,38.6785157
"Wood Ridge","NJ",16733.9,356.07476635514,"Wood Ridge, NJ",-74.0879195,40.8456555
"Worcester","MA",13604.0666666667,553.497690531178,"Worcester, MA",-71.8022934,42.2625932
"Xenia","OH",9534.3,347.967058823529,"Xenia, OH",-83.9296526,39.6847822
"Yakima","WA",8191.9,3286.96428571429,"Yakima, WA",-120.5058987,46.6020711
"Yaphank","NY",11909.6,1639.24259055982,"Yaphank, NY",-72.9170487,40.8367653
"York","PA",12855.52,419.046103183315,"York, PA",-76.727745,39.9625984
"Youngstown","OH",17605.65,667.136258660508,"Youngstown, OH",-80.6495194,41.0997803
"Yuma","AZ",10228.3,1782.11538461538,"Yuma, AZ",-114.6276916,32.6926512
